[
  {
    "id": "9c5a66c8-cc13-416f-a5d9-0a769c87d318",
    "name": "(512) Brewing Co",
    "brewery_type": "micro",
    "address_1": "407 Radam Ln Ste F200",
    "address_2": null,
    "address_3": null,
    "city": "Austin",
    "state_province": "Texas",
    "postal_code": "78745-1197",
    "country": "United States",
    "longitude": null,
    "latitude": null,
    "phone": "5129211545",
    "website_url": "http://www.512brewing.com",
    "state": "Texas",
    "street": "407 Radam Ln Ste F200"
  },
  {
    "id": "08f78223-24f8-4b71-b381-ea19a5bd82df",
    "name": "11 Below Brewing Company",
    "brewery_type": "micro",
    "address_1": "6820 Bourgeois Rd",
    "address_2": null,
    "address_3": null,
    "city": "Houston",
    "state_province": "Texas",
    "postal_code": "77066-3107",
    "country": "United States",
    "longitude": -95.5186591,
    "latitude": 29.9515464,
    "phone": "2814442337",
    "website_url": "http://www.11belowbrewing.com",
    "state": "Texas",
    "street": "6820 Bourgeois Rd"
  },
  {
    "id": "ed387340-ea78-4f65-9de0-15e2da50371e",
    "name": "3 Nations Brewing",
    "brewery_type": "micro",
    "address_1": "2405 Squire Pl Ste 200",
    "address_2": null,
    "address_3": null,
    "city": "Farmers Branch",
    "state_province": "Texas",
    "postal_code": "75234-4714",
    "country": "United States",
    "longitude": -96.89883128,
    "latitude": 32.93044336,
    "phone": "4696607184",
    "website_url": "http://www.threenationsbrewing.com",
    "state": "Texas",
    "street": "2405 Squire Pl Ste 200"
  },
  {
    "id": "aea0a6f9-557e-4907-be23-d80737a071e4",
    "name": "4J Brewing Company",
    "brewery_type": "micro",
    "address_1": "1348 Cedar Post Ln.",
    "address_2": null,
    "address_3": null,
    "city": "Houston",
    "state_province": "Texas",
    "postal_code": "77055",
    "country": "United States",
    "longitude": null,
    "latitude": null,
    "phone": "7136780776",
    "website_url": "https://4jbrewingcompany.com",
    "state": "Texas",
    "street": "1348 Cedar Post Ln."
  },
  {
    "id": "760e8395-f2a2-4161-9bf1-c72ed1aa6ae3",
    "name": "4th Tap Brewing Cooperative",
    "brewery_type": "micro",
    "address_1": "10615 Metric Blvd",
    "address_2": null,
    "address_3": null,
    "city": "Austin",
    "state_province": "Texas",
    "postal_code": "78758-4520",
    "country": "United States",
    "longitude": -97.7118913,
    "latitude": 30.3852024,
    "phone": "5129089817",
    "website_url": null,
    "state": "Texas",
    "street": "10615 Metric Blvd"
  },
  {
    "id": "83d47922-0a23-4b85-9c1c-d50b9135d64a",
    "name": "5 Stones Artisan Brewery",
    "brewery_type": "micro",
    "address_1": "11335 Farm To Market Road 1863",
    "address_2": null,
    "address_3": null,
    "city": "New Braunfels",
    "state_province": "Texas",
    "postal_code": "78132",
    "country": "United States",
    "longitude": -98.232345,
    "latitude": 29.711365,
    "phone": "2103808215",
    "website_url": null,
    "state": "Texas",
    "street": "11335 Farm To Market Road 1863"
  },
  {
    "id": "c2bc693f-906a-46a0-a5f9-82eab2d2845b",
    "name": "8th Wonder Brewery",
    "brewery_type": "micro",
    "address_1": "2202 Dallas St",
    "address_2": null,
    "address_3": null,
    "city": "Houston",
    "state_province": "Texas",
    "postal_code": "77003-3519",
    "country": "United States",
    "longitude": -95.3559402,
    "latitude": 29.7487783,
    "phone": "7133970072",
    "website_url": "http://www.8thwonderbrew.com",
    "state": "Texas",
    "street": "2202 Dallas St"
  },
  {
    "id": "2b067eab-e0b0-46b6-aaea-e40a62cf632f",
    "name": "903 Brewers",
    "brewery_type": "micro",
    "address_1": "1718 S Elm St",
    "address_2": null,
    "address_3": null,
    "city": "Sherman",
    "state_province": "Texas",
    "postal_code": "75090-8725",
    "country": "United States",
    "longitude": -96.60698055,
    "latitude": 33.61788732,
    "phone": "2142438090",
    "website_url": "http://www.903brewers.com",
    "state": "Texas",
    "street": "1718 S Elm St"
  },
  {
    "id": "7fa5779e-88df-42ab-895b-412b635498ae",
    "name": "Acopon Brewing Co",
    "brewery_type": "micro",
    "address_1": "211 W Mercer St",
    "address_2": null,
    "address_3": null,
    "city": "Dripping Springs",
    "state_province": "Texas",
    "postal_code": "78620-5363",
    "country": "United States",
    "longitude": -98.09006208,
    "latitude": 30.19269957,
    "phone": "5128294723",
    "website_url": "http://www.acoponbrewing.com",
    "state": "Texas",
    "street": "211 W Mercer St"
  },
  {
    "id": "9ff5f718-dee7-4e69-b79c-6250de87e840",
    "name": "Adelbert's Brewery LLC",
    "brewery_type": "micro",
    "address_1": "2314 Rutland Dr Ste 100",
    "address_2": null,
    "address_3": null,
    "city": "Austin",
    "state_province": "Texas",
    "postal_code": "78758-5273",
    "country": "United States",
    "longitude": -97.7201589,
    "latitude": 30.3826286,
    "phone": "5126621462",
    "website_url": "http://www.adelbertsbeer.com",
    "state": "Texas",
    "street": "2314 Rutland Dr Ste 100"
  },
  {
    "id": "edf1c0fb-cce0-44ec-8d98-dd4778e2d533",
    "name": "Alamo Beer Co",
    "brewery_type": "micro",
    "address_1": "415 Burnet St",
    "address_2": null,
    "address_3": null,
    "city": "San Antonio",
    "state_province": "Texas",
    "postal_code": "78202-1909",
    "country": "United States",
    "longitude": -98.4771638,
    "latitude": 29.42902321,
    "phone": "2108725589",
    "website_url": "http://www.alamobeer.com",
    "state": "Texas",
    "street": "415 Burnet St"
  },
  {
    "id": "be64e523-9c15-4348-87e5-c6747b87abcb",
    "name": "Altmeyer and Lewis Brewing Company",
    "brewery_type": "micro",
    "address_1": "15898 N Hwy 123",
    "address_2": null,
    "address_3": null,
    "city": "San Marcos",
    "state_province": "Texas",
    "postal_code": "78666-2418",
    "country": "United States",
    "longitude": null,
    "latitude": null,
    "phone": "5126679537",
    "website_url": "http://www.altmeyerlewisbrewing.com",
    "state": "Texas",
    "street": "15898 N Hwy 123"
  },
  {
    "id": "68410dce-b145-4c0a-993f-08fc280cc9c8",
    "name": "Altstadt Brewery",
    "brewery_type": "micro",
    "address_1": "6120 E US Highway 290",
    "address_2": null,
    "address_3": null,
    "city": "Fredericksburg",
    "state_province": "Texas",
    "postal_code": "78624-2176",
    "country": "United States",
    "longitude": -98.8467263,
    "latitude": 30.2468574,
    "phone": "8303042337",
    "website_url": "http://www.altstadtbeer.com",
    "state": "Texas",
    "street": "6120 E US Highway 290"
  },
  {
    "id": "7e286282-9365-48c2-8bd2-1193bac62449",
    "name": "Armadillo Ale Works",
    "brewery_type": "micro",
    "address_1": "221 S Bell Ave",
    "address_2": null,
    "address_3": null,
    "city": "Denton",
    "state_province": "Texas",
    "postal_code": "76201-4259",
    "country": "United States",
    "longitude": -97.12830051,
    "latitude": 33.21286666,
    "phone": "9405804446",
    "website_url": "http://www.armadilloaleworks.com",
    "state": "Texas",
    "street": "221 S Bell Ave"
  },
  {
    "id": "d916497e-0b1b-48aa-8add-10a62c0b3e90",
    "name": "Astral Brewing",
    "brewery_type": "micro",
    "address_1": "4816 N Shepherd Dr suite a",
    "address_2": null,
    "address_3": null,
    "city": "Houston",
    "state_province": "Texas",
    "postal_code": "77018",
    "country": "United States",
    "longitude": null,
    "latitude": null,
    "phone": "7135341067",
    "website_url": "https://www.astralbrewing.com",
    "state": "Texas",
    "street": "4816 N Shepherd Dr suite a"
  },
  {
    "id": "483efb3e-05aa-43b5-a283-40414b6b47dc",
    "name": "B and J's Handcrafted Texas Ales",
    "brewery_type": "micro",
    "address_1": "6335 S Padre Island Dr",
    "address_2": null,
    "address_3": null,
    "city": "Corpus Christi",
    "state_province": "Texas",
    "postal_code": "78412-4013",
    "country": "United States",
    "longitude": -97.2962784,
    "latitude": 27.6749936,
    "phone": "3619926671",
    "website_url": "http://pizzaandbrew@aol.com",
    "state": "Texas",
    "street": "6335 S Padre Island Dr"
  },
  {
    "id": "8f4aa88c-e9cb-4932-9245-a2230ec59b63",
    "name": "B-52 Brewing",
    "brewery_type": "micro",
    "address_1": "12470 Milroy Ln",
    "address_2": null,
    "address_3": null,
    "city": "Conroe",
    "state_province": "Texas",
    "postal_code": "77304-5160",
    "country": "United States",
    "longitude": null,
    "latitude": null,
    "phone": "9364474677",
    "website_url": "http://www.b52brewing.com",
    "state": "Texas",
    "street": "12470 Milroy Ln"
  },
  {
    "id": "80263b86-dfa6-46dd-86cd-3440a13d5015",
    "name": "B-CS  Zoigl Brewery",
    "brewery_type": "micro",
    "address_1": "Â 211-C W William Joel Bryan Pkwy",
    "address_2": null,
    "address_3": null,
    "city": "Bryan",
    "state_province": "Texas",
    "postal_code": "77803-3225",
    "country": "United States",
    "longitude": null,
    "latitude": null,
    "phone": "2819353018",
    "website_url": "http://www.bcs-zoigl.com",
    "state": "Texas",
    "street": "Â 211-C W William Joel Bryan Pkwy"
  },
  {
    "id": "c916c0c3-be83-4d5a-b2de-c58fc9faa206",
    "name": "Baa Baa Brewhouse",
    "brewery_type": "micro",
    "address_1": "539 FM 359 Rd S",
    "address_2": null,
    "address_3": null,
    "city": "Brookshire",
    "state_province": "Texas",
    "postal_code": "77423-8013",
    "country": "United States",
    "longitude": null,
    "latitude": null,
    "phone": "2819341847",
    "website_url": "http://www.baabaabrewhouse.com",
    "state": "Texas",
    "street": "539 FM 359 Rd S"
  },
  {
    "id": "38c59264-ac19-4b4a-bada-cab729f71d57",
    "name": "Back Pew Brewing",
    "brewery_type": "micro",
    "address_1": "26452 Sorters Rd",
    "address_2": null,
    "address_3": null,
    "city": "Porter",
    "state_province": "Texas",
    "postal_code": "77365-4752",
    "country": "United States",
    "longitude": null,
    "latitude": null,
    "phone": "2816087526",
    "website_url": "http://www.backpewbrewing.com",
    "state": "Texas",
    "street": "26452 Sorters Rd"
  },
  {
    "id": "e932c001-d68a-4dc8-8eef-b4311b9399ad",
    "name": "Back Unturned Brewing Co.",
    "brewery_type": "micro",
    "address_1": "516 Brooklyn Ave",
    "address_2": null,
    "address_3": null,
    "city": "San Antonio",
    "state_province": "Texas",
    "postal_code": "78215",
    "country": "United States",
    "longitude": -98.4867139,
    "latitude": 29.4330983,
    "phone": "210-25-0022",
    "website_url": "http://www.backunturned.com/",
    "state": "Texas",
    "street": "516 Brooklyn Ave"
  },
  {
    "id": "a715d721-e382-45e3-a035-18edf1dee861",
    "name": "Baileson Brewing Company, LLC",
    "brewery_type": "micro",
    "address_1": "2322 Bissonnet St",
    "address_2": null,
    "address_3": null,
    "city": "Houston",
    "state_province": "Texas",
    "postal_code": "77005-1512",
    "country": "United States",
    "longitude": -95.41337465,
    "latitude": 29.72562404,
    "phone": "8325169828",
    "website_url": "http://www.bailesonbrewing.com",
    "state": "Texas",
    "street": "2322 Bissonnet St"
  },
  {
    "id": "2f4107b2-90e6-422e-876b-6578924206bb",
    "name": "BAKFISH Brewing Company",
    "brewery_type": "micro",
    "address_1": "1231 Broadway St",
    "address_2": null,
    "address_3": null,
    "city": "Pearland",
    "state_province": "Texas",
    "postal_code": "77581-6303",
    "country": "United States",
    "longitude": -95.4174149,
    "latitude": 29.5551351,
    "phone": "2819938658",
    "website_url": "http://www.bakfishbrewing.com",
    "state": "Texas",
    "street": "1231 Broadway St"
  },
  {
    "id": "2d0bf6d8-1aad-42f4-8553-f78c7b90e1fd",
    "name": "Bandera Ale Project, LLC",
    "brewery_type": "micro",
    "address_1": "3540 State Highway 16 S Ste 2A",
    "address_2": null,
    "address_3": null,
    "city": "Bandera",
    "state_province": "Texas",
    "postal_code": "78003-3561",
    "country": "United States",
    "longitude": null,
    "latitude": null,
    "phone": "8305224226",
    "website_url": "http://www.banderabrewery.com",
    "state": "Texas",
    "street": "3540 State Highway 16 S Ste 2A"
  },
  {
    "id": "df0ca5e9-9372-4516-a191-e6bfe4c466b0",
    "name": "Bare Arms Brewing",
    "brewery_type": "micro",
    "address_1": "2515 La Salle Ave",
    "address_2": null,
    "address_3": null,
    "city": "Waco",
    "state_province": "Texas",
    "postal_code": "76706-3929",
    "country": "United States",
    "longitude": -97.13081959,
    "latitude": 31.52488462,
    "phone": "2547598480",
    "website_url": "http://www.barearmsbrewing.com",
    "state": "Texas",
    "street": "2515 La Salle Ave"
  },
  {
    "id": "2c58a683-787e-4d26-a7f0-e12e31b36e74",
    "name": "Barking Armadillo Brewing",
    "brewery_type": "micro",
    "address_1": "507 River Bend",
    "address_2": null,
    "address_3": null,
    "city": "Georgetown",
    "state_province": "Texas",
    "postal_code": "78723-3342",
    "country": "United States",
    "longitude": -97.6932487,
    "latitude": 30.6608114,
    "phone": "512-240-5137",
    "website_url": "http://www.barkingarmadillo.com/",
    "state": "Texas",
    "street": "507 River Bend"
  },
  {
    "id": "8000063a-f3ac-41e0-8c1d-ad58ba3ad562",
    "name": "Barrow Brewing Company",
    "brewery_type": "micro",
    "address_1": "108 Royal St",
    "address_2": null,
    "address_3": null,
    "city": "Salado",
    "state_province": "Texas",
    "postal_code": "76571",
    "country": "United States",
    "longitude": -97.53703133,
    "latitude": 30.94295989,
    "phone": "2549473544",
    "website_url": "http://www.barrowbrewing.com",
    "state": "Texas",
    "street": "108 Royal St"
  },
  {
    "id": "4a9101f6-a7eb-461c-95c9-a0ce6bffdaeb",
    "name": "Basement Brewers of Texas",
    "brewery_type": "micro",
    "address_1": "521 Clay St",
    "address_2": null,
    "address_3": null,
    "city": "Kerrville",
    "state_province": "Texas",
    "postal_code": "78028-4525",
    "country": "United States",
    "longitude": -99.1392822,
    "latitude": 30.05042839,
    "phone": "8309555073",
    "website_url": "http://www.basementbrewersoftexas.com",
    "state": "Texas",
    "street": "521 Clay St"
  },
  {
    "id": "3a8c6632-e9df-4d42-9adb-a2cb5c6863c8",
    "name": "Bearded Fox Brewing Co.",
    "brewery_type": "micro",
    "address_1": "11729 Spring Cypress Rd Ste R",
    "address_2": null,
    "address_3": null,
    "city": "Tomball",
    "state_province": "Texas",
    "postal_code": "77377-6063",
    "country": "United States",
    "longitude": null,
    "latitude": null,
    "phone": "8327617928",
    "website_url": "http://www.beardedfoxbrewing.com",
    "state": "Texas",
    "street": "11729 Spring Cypress Rd Ste R"
  },
  {
    "id": "09c40072-dae9-445b-a8e5-574ac4c9371a",
    "name": "Beerfoot Beach Bar",
    "brewery_type": "micro",
    "address_1": "2816 Avenue R 1/2",
    "address_2": null,
    "address_3": null,
    "city": "Galveston",
    "state_province": "Texas",
    "postal_code": "77550-7742",
    "country": "United States",
    "longitude": null,
    "latitude": null,
    "phone": "4097622337",
    "website_url": "http://www.yagaspresents.com/beerfoot/index.html",
    "state": "Texas",
    "street": "2816 Avenue R 1/2"
  },
  {
    "id": "5fe8f212-8c52-4183-85ff-687307298047",
    "name": "Big Bend Brewing Co",
    "brewery_type": "micro",
    "address_1": "3401 W Highway 90",
    "address_2": null,
    "address_3": null,
    "city": "Alpine",
    "state_province": "Texas",
    "postal_code": "79830-4127",
    "country": "United States",
    "longitude": null,
    "latitude": null,
    "phone": "4328373700",
    "website_url": "http://www.bigbendbrewing.com",
    "state": "Texas",
    "street": "3401 W Highway 90"
  },
  {
    "id": "8db35211-a4ca-44d7-a6dd-a31c3e2ead66",
    "name": "Big River Brewery, LLC",
    "brewery_type": "micro",
    "address_1": "505 W Nolana Loop",
    "address_2": null,
    "address_3": null,
    "city": "Pharr",
    "state_province": "Texas",
    "postal_code": "78577-8345",
    "country": "United States",
    "longitude": null,
    "latitude": null,
    "phone": "9565661455",
    "website_url": null,
    "state": "Texas",
    "street": "505 W Nolana Loop"
  },
  {
    "id": "27812208-7d7b-4c77-b62a-bc405d6af897",
    "name": "Bitter Sisters Brewing Company",
    "brewery_type": "micro",
    "address_1": "15103 Surveyor Blvd",
    "address_2": null,
    "address_3": null,
    "city": "Addison",
    "state_province": "Texas",
    "postal_code": "75001-4316",
    "country": "United States",
    "longitude": -96.845846,
    "latitude": 32.951222,
    "phone": "9724790949",
    "website_url": "http://www.bittersistersbrewery.com",
    "state": "Texas",
    "street": "15103 Surveyor Blvd"
  },
  {
    "id": "6aa5ecd3-aaec-472c-ba67-c7f8d6b75b40",
    "name": "Black Laboratory Breing",
    "brewery_type": "micro",
    "address_1": "1602 E Houston St Suite 109",
    "address_2": null,
    "address_3": null,
    "city": "San Antonio",
    "state_province": "Texas",
    "postal_code": "78202",
    "country": "United States",
    "longitude": -98.4753507,
    "latitude": 29.4246556,
    "phone": "210-370-3442",
    "website_url": "http://www.blacklaboratorybrewing.com/",
    "state": "Texas",
    "street": "1602 E Houston St Suite 109"
  },
  {
    "id": "d67cae67-6bcf-4a02-92e0-76d81ebfb5b8",
    "name": "Black Page Brewing Co.",
    "brewery_type": "micro",
    "address_1": "210 Glen Park St.",
    "address_2": null,
    "address_3": null,
    "city": "Houston",
    "state_province": "Texas",
    "postal_code": "77009",
    "country": "United States",
    "longitude": null,
    "latitude": null,
    "phone": "7137846001",
    "website_url": "https://blackpagebrewing.com",
    "state": "Texas",
    "street": "210 Glen Park St."
  },
  {
    "id": "9be2e661-7d9a-4445-b1b9-6a420a047407",
    "name": "Blazing Tree Brewery",
    "brewery_type": "micro",
    "address_1": "11426 Rojas Dr Ste A13",
    "address_2": null,
    "address_3": null,
    "city": "El Paso",
    "state_province": "Texas",
    "postal_code": "79936-6486",
    "country": "United States",
    "longitude": null,
    "latitude": null,
    "phone": "9153073627",
    "website_url": null,
    "state": "Texas",
    "street": "11426 Rojas Dr Ste A13"
  },
  {
    "id": "5c4c95ae-4128-4510-b2c7-2a7c483de5a2",
    "name": "Blue Owl Brewing",
    "brewery_type": "micro",
    "address_1": "2400 E Cesar Chavez St Ste 300",
    "address_2": null,
    "address_3": null,
    "city": "Austin",
    "state_province": "Texas",
    "postal_code": "78702-4638",
    "country": "United States",
    "longitude": -97.7189581,
    "latitude": 30.2545583,
    "phone": "5125931262",
    "website_url": "http://www.blueowlbrewing.com",
    "state": "Texas",
    "street": "2400 E Cesar Chavez St Ste 300"
  },
  {
    "id": "cc7d935c-c318-4a60-9da6-e683a3ce7fb9",
    "name": "Bluebonnet Beer Co",
    "brewery_type": "micro",
    "address_1": "1700 Bryant Dr Ste 107",
    "address_2": null,
    "address_3": null,
    "city": "Round Rock",
    "state_province": "Texas",
    "postal_code": "78664-3898",
    "country": "United States",
    "longitude": -97.645332,
    "latitude": 30.491657,
    "phone": "5127744258",
    "website_url": "http://www.bluebonnetbeerco.com",
    "state": "Texas",
    "street": "1700 Bryant Dr Ste 107"
  },
  {
    "id": "218c5541-892d-4bd8-9745-ebd90304f80b",
    "name": "Boerne Brewery",
    "brewery_type": "micro",
    "address_1": "9 Hill View Ln",
    "address_2": null,
    "address_3": null,
    "city": "Boerne",
    "state_province": "Texas",
    "postal_code": "78006-7003",
    "country": "United States",
    "longitude": null,
    "latitude": null,
    "phone": "8306889693",
    "website_url": "http://www.boernebrewery.com",
    "state": "Texas",
    "street": "9 Hill View Ln"
  },
  {
    "id": "43c4cb4d-476d-4fce-989b-824dcc289d8f",
    "name": "Brash",
    "brewery_type": "micro",
    "address_1": "508 W Crosstimbers St",
    "address_2": null,
    "address_3": null,
    "city": "Houston",
    "state_province": "Texas",
    "postal_code": "77018-5521",
    "country": "United States",
    "longitude": -95.40974166,
    "latitude": 29.82727538,
    "phone": null,
    "website_url": "http://www.brashbeers.com",
    "state": "Texas",
    "street": "508 W Crosstimbers St"
  },
  {
    "id": "1cf71f6d-be03-4c41-894d-b496b5358dfe",
    "name": "Brazos Valley Brewing Company",
    "brewery_type": "micro",
    "address_1": "201 W 1st St",
    "address_2": null,
    "address_3": null,
    "city": "Brenham",
    "state_province": "Texas",
    "postal_code": "77833",
    "country": "United States",
    "longitude": -96.3986627,
    "latitude": 30.16447,
    "phone": "9799871133",
    "website_url": "http://www.brazosvalleybrewery.com",
    "state": "Texas",
    "street": "201 W 1st St"
  },
  {
    "id": "aaf2382f-cfd7-4218-a571-120982815d6a",
    "name": "Brigadoon Brewery & Brew School",
    "brewery_type": "micro",
    "address_1": "4808 Fairmont Pkwy Ste 112",
    "address_2": null,
    "address_3": null,
    "city": "Pasadena",
    "state_province": "Texas",
    "postal_code": "77505-3722",
    "country": "United States",
    "longitude": -95.1511925,
    "latitude": 29.6501134,
    "phone": "9368940425",
    "website_url": "http://www.brigadoonbrewery.com",
    "state": "Texas",
    "street": "4808 Fairmont Pkwy Ste 112"
  },
  {
    "id": "68e4d79f-cb2d-4c7c-ad44-0052927e5b59",
    "name": "Brotherwell Brewing",
    "brewery_type": "micro",
    "address_1": "400 E Bridge St",
    "address_2": null,
    "address_3": null,
    "city": "Waco",
    "state_province": "Texas",
    "postal_code": "76704-2505",
    "country": "United States",
    "longitude": -97.124214,
    "latitude": 31.56428,
    "phone": "2147638755",
    "website_url": null,
    "state": "Texas",
    "street": "400 E Bridge St"
  },
  {
    "id": "91fe878b-f118-4ed2-b733-bcde32a53f1d",
    "name": "BS Brewing",
    "brewery_type": "micro",
    "address_1": "1408 Old Lehmann Rd",
    "address_2": null,
    "address_3": null,
    "city": "Seguin",
    "state_province": "Texas",
    "postal_code": "78155-5048",
    "country": "United States",
    "longitude": -97.90477894,
    "latitude": 29.69091561,
    "phone": "8306608124",
    "website_url": "http://www.bsbrewingtx.com",
    "state": "Texas",
    "street": "1408 Old Lehmann Rd"
  },
  {
    "id": "7ce4f9c5-bf79-4d42-b7bb-aaa70cd2e069",
    "name": "Buffalo Bayou Brewing Co",
    "brewery_type": "micro",
    "address_1": "5301 Nolda St",
    "address_2": null,
    "address_3": null,
    "city": "Houston",
    "state_province": "Texas",
    "postal_code": "77007-2234",
    "country": "United States",
    "longitude": -95.4160849,
    "latitude": 29.775978,
    "phone": "7137509795",
    "website_url": "http://www.buffbrew.com",
    "state": "Texas",
    "street": "5301 Nolda St"
  },
  {
    "id": "31492f5d-c872-461c-b6c5-752ced93759a",
    "name": "Busted Sandal Brewing Company",
    "brewery_type": "micro",
    "address_1": "7114 Oaklawn Dr",
    "address_2": null,
    "address_3": null,
    "city": "San Antonio",
    "state_province": "Texas",
    "postal_code": "78229-3021",
    "country": "United States",
    "longitude": null,
    "latitude": null,
    "phone": "2108721486",
    "website_url": "http://www.bustedsandalbrewing.com",
    "state": "Texas",
    "street": "7114 Oaklawn Dr"
  },
  {
    "id": "1a4ac5aa-6d2f-41ef-80b5-b4b11db57b9a",
    "name": "Cactus Land Brewing Company",
    "brewery_type": "micro",
    "address_1": "368 County Road 325",
    "address_2": null,
    "address_3": null,
    "city": "Adkins",
    "state_province": "Texas",
    "postal_code": "78101-2812",
    "country": "United States",
    "longitude": null,
    "latitude": null,
    "phone": "2104142776",
    "website_url": "http://www.cactuslandbrewing.com",
    "state": "Texas",
    "street": "368 County Road 325"
  },
  {
    "id": "f99f9f8d-d2e0-4f23-9644-c95ff543e235",
    "name": "Caracara Brewing Company",
    "brewery_type": "micro",
    "address_1": "100 E Market St",
    "address_2": null,
    "address_3": null,
    "city": "Lockhart",
    "state_province": "Texas",
    "postal_code": "78644-2747",
    "country": "United States",
    "longitude": -97.672065,
    "latitude": 29.883798,
    "phone": null,
    "website_url": "http://www.caracarabrewingcompany.com",
    "state": "Texas",
    "street": "100 E Market St"
  },
  {
    "id": "1e5fd874-e6fa-4189-ad30-a6aab5e2ec7b",
    "name": "Celis Brewery",
    "brewery_type": "micro",
    "address_1": "10001 Metic Blvd.",
    "address_2": null,
    "address_3": null,
    "city": "Austin",
    "state_province": "Texas",
    "postal_code": "78758",
    "country": "United States",
    "longitude": null,
    "latitude": null,
    "phone": "5125242377",
    "website_url": "http://www.celisbeers.com",
    "state": "Texas",
    "street": "10001 Metic Blvd."
  },
  {
    "id": "729fb6cc-0d37-4179-81fe-73a18e67b667",
    "name": "Central Machine Works",
    "brewery_type": "micro",
    "address_1": "4824 E Cesar Chavez St",
    "address_2": null,
    "address_3": null,
    "city": "Austin",
    "state_province": "Texas",
    "postal_code": "78702-5135",
    "country": "United States",
    "longitude": -97.7037665,
    "latitude": 30.2520225,
    "phone": "512-220-2340",
    "website_url": "http://cmwbrewery.com/",
    "state": "Texas",
    "street": "4824 E Cesar Chavez St"
  }
]